Id	Type	Name	Address	Lat	Lon
1	a	2019 서울장미축제	서울특별시 중랑구 중랑천로 332	37.614622	127.073395
2	a	2019 창덕궁 달빛기행	서울특별시 종로구 율곡로 99	37.580401	126.991893
3	a	2019 상반기 외국인국악아카데미	서울특별시 중구 동호로 241	37.558385	127.006625
4	a	한국 전통체험의 모든 것	서울특별시 중구 퇴계로34길 28	37.559094	126.994083
5	a	활짝! 숲속 책 놀이터	서울특별시 마포구 증산로 87	37.571575	126.894124
